[{"name":"iSkoot","category":"mobile","city":"Cambridge","money_raised":"$32.2M","founded_year":2005,"lat":42.375392,"long":-71.118487,"position":{"type":"Point","coordinates":[-71.118487,42.375392]}},{"name":"iSkoot","category":"mobile","city":"San Francisco","money_raised":"$32.2M","founded_year":2005,"lat":37.780134,"long":-122.396744,"position":{"type":"Point","coordinates":[-122.396744,37.780134]}},{"name":"Akamai Technologies","category":"enterprise","city":"Cambridge","money_raised":"$0","founded_year":1998,"lat":42.364059,"long":-71.08907,"position":{"type":"Point","coordinates":[-71.08907,42.364059]}},{"name":"Vlingo","category":"mobile","city":"Cambridge","money_raised":"$26.5M","founded_year":2006,"lat":42.372912,"long":-71.118999,"position":{"type":"Point","coordinates":[-71.118999,42.372912]}},{"name":"LocaModa","category":"advertising","city":"Cambridge","money_raised":"$7.9M","founded_year":2007,"lat":42.358822,"long":-71.104329,"position":{"type":"Point","coordinates":[-71.104329,42.358822]}},{"name":"UpDown","category":"web","city":"Cambridge","money_raised":"$1.75M","founded_year":2007,"lat":42.375392,"long":-71.118487,"position":{"type":"Point","coordinates":[-71.118487,42.375392]}},{"name":"GamerDNA","category":"web","city":"Cambridge","money_raised":"$3M","founded_year":2006,"lat":42.375392,"long":-71.118487,"position":{"type":"Point","coordinates":[-71.118487,42.375392]}},{"name":"Sermo","category":"health","city":"Cambridge","money_raised":"$41M","founded_year":2006,"lat":42.364367,"long":-71.078978,"position":{"type":"Point","coordinates":[-71.078978,42.364367]}},{"name":"Evi","category":"search","city":"Cambridge","money_raised":"\u00a32.6M","founded_year":2005,"lat":52.195668,"long":0.130647,"position":{"type":"Point","coordinates":[0.130647,52.195668]}},{"name":"HubSpot","category":"software","city":"Cambridge","money_raised":"$131M","founded_year":2006,"lat":42.375392,"long":-71.118487,"position":{"type":"Point","coordinates":[-71.118487,42.375392]}},{"name":"Lookery","category":"web","city":"San Francisco","money_raised":"$3.15M","founded_year":2007,"lat":37.788266,"long":-122.403865,"position":{"type":"Point","coordinates":[-122.403865,37.788266]}},{"name":"Lookery","category":"web","city":"Cambridge","money_raised":"$3.15M","founded_year":2007,"lat":42.398424,"long":-71.130297,"position":{"type":"Point","coordinates":[-71.130297,42.398424]}},{"name":"YouCastr","category":"games_video","city":"Cambridge","money_raised":"$500k","founded_year":2007,"lat":42.36787,"long":-71.078258,"position":{"type":"Point","coordinates":[-71.078258,42.36787]}},{"name":"Bango","category":"mobile","city":"Cambridge","money_raised":"$10.2M","founded_year":1999,"lat":52.2155382,"long":0.124024,"position":{"type":"Point","coordinates":[0.124024,52.2155382]}},{"name":"Bango","category":"mobile","city":"New York","money_raised":"$10.2M","founded_year":1999,"lat":40.7412488,"long":-73.9912518,"position":{"type":"Point","coordinates":[-73.9912518,40.7412488]}},{"name":"Forrester Research","category":"consulting","city":"Cambridge","money_raised":"$0","founded_year":1983,"lat":42.3632,"long":-71.092378,"position":{"type":"Point","coordinates":[-71.092378,42.3632]}},{"name":"Pegasystems","category":"software","city":"Cambridge","money_raised":"$0","founded_year":1983,"lat":42.36233,"long":-71.081527,"position":{"type":"Point","coordinates":[-71.081527,42.36233]}},{"name":"Moviestorm","category":"software","city":"Cambridge","money_raised":"\u00a34.3M","founded_year":2005,"lat":52.197471,"long":0.130588,"position":{"type":"Point","coordinates":[0.130588,52.197471]}},{"name":"Gameware Development","category":"software","city":"Cambridge","money_raised":"$0","founded_year":2003,"lat":52.205194,"long":0.130733,"position":{"type":"Point","coordinates":[0.130733,52.205194]}},{"name":"PatientsLikeMe","category":"health","city":"Cambridge","money_raised":"$27M","founded_year":2004,"lat":42.3674989,"long":-71.0793952,"position":{"type":"Point","coordinates":[-71.0793952,42.3674989]}},{"name":"Hypertag","category":"mobile","city":"Cambridge","money_raised":"$0","founded_year":2001,"lat":52.202544,"long":0.131237,"position":{"type":"Point","coordinates":[0.131237,52.202544]}},{"name":"Curl","category":"software","city":"Cambridge","money_raised":"$0","founded_year":1998,"lat":42.362993,"long":-71.086596,"position":{"type":"Point","coordinates":[-71.086596,42.362993]}},{"name":"YouTomb","category":"games_video","city":"Cambridge","money_raised":"$0","founded_year":2008,"lat":42.375392,"long":-71.118487,"position":{"type":"Point","coordinates":[-71.118487,42.375392]}},{"name":"Pingability","category":"network_hosting","city":"Cambridge","money_raised":"$0","founded_year":2005,"lat":-37.891488,"long":175.46974,"position":{"type":"Point","coordinates":[175.46974,-37.891488]}},{"name":"Sirtris Pharmaceuticals","category":"biotech","city":"Cambridge","money_raised":"$82M","founded_year":2004,"lat":42.363567,"long":-71.091189,"position":{"type":"Point","coordinates":[-71.091189,42.363567]}},{"name":"Pivot","category":"software","city":"Cambridge","money_raised":"$13.1M","founded_year":2004,"lat":42.364367,"long":-71.078978,"position":{"type":"Point","coordinates":[-71.078978,42.364367]}},{"name":"MANHUNT","category":"web","city":"Cambridge","money_raised":"$0","founded_year":2002,"lat":42.3635847,"long":-71.0824613,"position":{"type":"Point","coordinates":[-71.0824613,42.3635847]}},{"name":"MetaCarta","category":"mobile","city":"Cambridge","money_raised":"$10M","founded_year":2001,"lat":42.36236,"long":-71.099692,"position":{"type":"Point","coordinates":[-71.099692,42.36236]}},{"name":"GenArts","category":"games_video","city":"Cambridge","money_raised":"$22.4M","founded_year":1996,"lat":42.369007,"long":-71.110276,"position":{"type":"Point","coordinates":[-71.110276,42.369007]}},{"name":"Vanu","category":"software","city":"Cambridge","money_raised":"$42.2M","founded_year":1998,"lat":42.362993,"long":-71.086596,"position":{"type":"Point","coordinates":[-71.086596,42.362993]}},{"name":"Dataupia","category":"enterprise","city":"Cambridge","money_raised":"$41M","founded_year":2005,"lat":42.3988457,"long":-71.1404961,"position":{"type":"Point","coordinates":[-71.1404961,42.3988457]}},{"name":"Emerginvest","category":"web","city":"Cambridge","money_raised":"$0","founded_year":2007,"lat":42.374396,"long":-71.113686,"position":{"type":"Point","coordinates":[-71.113686,42.374396]}},{"name":"Emerginvest","category":"web","city":"Cambridge","money_raised":"$0","founded_year":2007,"lat":42.374396,"long":-71.113686,"position":{"type":"Point","coordinates":[-71.113686,42.374396]}},{"name":"CityVoter","category":"web","city":"Cambridge","money_raised":"$4.18M","founded_year":2005,"lat":42.358184,"long":-71.106389,"position":{"type":"Point","coordinates":[-71.106389,42.358184]}},{"name":"Yamli","category":"search","city":"Cambridge","money_raised":"$0","founded_year":2007,"lat":42.388621,"long":-71.132583,"position":{"type":"Point","coordinates":[-71.132583,42.388621]}},{"name":"Epernicus","category":"web","city":"Cambridge","money_raised":"$0","founded_year":2007,"lat":42.364756,"long":-71.103259,"position":{"type":"Point","coordinates":[-71.103259,42.364756]}},{"name":"mBLAST","category":"software","city":"Cambridge","money_raised":"$0","founded_year":2000,"lat":41.815805,"long":-72.171057,"position":{"type":"Point","coordinates":[-72.171057,41.815805]}},{"name":"galaxyadvisors","category":"network_hosting","city":"Cambridge","money_raised":"$600k","founded_year":2007,"lat":42.393551,"long":-71.128231,"position":{"type":"Point","coordinates":[-71.128231,42.393551]}},{"name":"galaxyadvisors","category":"network_hosting","city":"Aarau","money_raised":"$600k","founded_year":2007,"lat":47.394253,"long":8.0493789,"position":{"type":"Point","coordinates":[8.0493789,47.394253]}},{"name":"WebNotes","category":"web","city":"Cambridge","money_raised":"$345k","founded_year":2007,"lat":42.360098,"long":-71.085909,"position":{"type":"Point","coordinates":[-71.085909,42.360098]}},{"name":"Geocade","category":"games_video","city":"Cambridge","money_raised":"$0","founded_year":2008,"lat":42.362856,"long":-71.083762,"position":{"type":"Point","coordinates":[-71.083762,42.362856]}},{"name":"Twitter Grader","category":null,"city":"Cambridge","money_raised":"$0","founded_year":2008,"lat":42.3736158,"long":-71.1097335,"position":{"type":"Point","coordinates":[-71.1097335,42.3736158]}},{"name":"Quanterix","category":"biotech","city":"Cambridge","money_raised":"$41.5M","founded_year":2007,"lat":42.3663257,"long":-71.0917952,"position":{"type":"Point","coordinates":[-71.0917952,42.3663257]}},{"name":"FACE Africa","category":"other","city":"Cambridge","money_raised":"$0","founded_year":2007,"lat":42.368905,"long":-71.108999,"position":{"type":"Point","coordinates":[-71.108999,42.368905]}},{"name":"Digimind","category":"software","city":"Cambridge","money_raised":"$0","founded_year":1998,"lat":42.3894104,"long":-71.1460106,"position":{"type":"Point","coordinates":[-71.1460106,42.3894104]}},{"name":"WebLayers","category":"software","city":"Cambridge","money_raised":"$10M","founded_year":2002,"lat":42.377535,"long":-71.149057,"position":{"type":"Point","coordinates":[-71.149057,42.377535]}},{"name":"JotNot","category":"mobile","city":"Cambridge","money_raised":"$0","founded_year":2008,"lat":42.388621,"long":-71.132583,"position":{"type":"Point","coordinates":[-71.132583,42.388621]}},{"name":"Greentech Media","category":"news","city":"Cambridge","money_raised":"$4.58M","founded_year":2007,"lat":42.3604755,"long":-71.0954159,"position":{"type":"Point","coordinates":[-71.0954159,42.3604755]}},{"name":"Mazu Networks","category":"security","city":"Cambridge","money_raised":"$7M","founded_year":2000,"lat":42.395219,"long":-71.145326,"position":{"type":"Point","coordinates":[-71.145326,42.395219]}},{"name":"AllYearbooks","category":"web","city":"Cambridge","money_raised":"$0","founded_year":2004,"lat":52.1992891,"long":0.1380852,"position":{"type":"Point","coordinates":[0.1380852,52.1992891]}},{"name":"Bitstream","category":"mobile","city":"Cambridge","money_raised":"$0","founded_year":1987,"lat":42.3634664,"long":-71.0786638,"position":{"type":"Point","coordinates":[-71.0786638,42.3634664]}},{"name":"VitalLock","category":"web","city":"Cambridge","money_raised":"$0","founded_year":2009,"lat":42.362856,"long":-71.083762,"position":{"type":"Point","coordinates":[-71.083762,42.362856]}},{"name":"JoggingBuddy","category":"web","city":"Cambridge","money_raised":"$0","founded_year":2008,"lat":52.2025441,"long":0.1312368,"position":{"type":"Point","coordinates":[0.1312368,52.2025441]}},{"name":"oneforty","category":"enterprise","city":"Cambridge","money_raised":"$2.35M","founded_year":2009,"lat":42.364014,"long":-71.101375,"position":{"type":"Point","coordinates":[-71.101375,42.364014]}},{"name":"Broadersheet","category":"web","city":"Cambridge","money_raised":"$0","founded_year":2009,"lat":52.2025441,"long":0.1312368,"position":{"type":"Point","coordinates":[0.1312368,52.2025441]}},{"name":"Monderer Design","category":"public_relations","city":"Cambridge","money_raised":"$0","founded_year":1982,"lat":42.3912548,"long":-71.1228802,"position":{"type":"Point","coordinates":[-71.1228802,42.3912548]}},{"name":"Sand 9","category":"mobile","city":"Cambridge","money_raised":"$70.2M","founded_year":2007,"lat":42.3488891,"long":-71.1068046,"position":{"type":"Point","coordinates":[-71.1068046,42.3488891]}},{"name":"Upland Software","category":"software","city":"Cambridge","money_raised":"$23.3M","founded_year":1998,"lat":42.3656123,"long":-71.0922022,"position":{"type":"Point","coordinates":[-71.0922022,42.3656123]}},{"name":"Sponty","category":"web","city":"Cambridge","money_raised":"$0","founded_year":2008,"lat":42.3672873,"long":-71.0814466,"position":{"type":"Point","coordinates":[-71.0814466,42.3672873]}},{"name":"Go Test It","category":"network_hosting","city":"Cambridge","money_raised":"$0","founded_year":2007,"lat":52.1963733,"long":0.1987426,"position":{"type":"Point","coordinates":[0.1987426,52.1963733]}},{"name":"Above the Fold","category":"other","city":"Cambridge","money_raised":"$0","founded_year":2004,"lat":42.357489,"long":-71.055591,"position":{"type":"Point","coordinates":[-71.055591,42.357489]}},{"name":"TextMagic","category":"mobile","city":"Cambridge","money_raised":"$0","founded_year":2001,"lat":52.2025441,"long":0.1312368,"position":{"type":"Point","coordinates":[0.1312368,52.2025441]}},{"name":"Lightwave Power","category":"cleantech","city":"Cambridge","money_raised":"$13M","founded_year":2008,"lat":42.392628,"long":-71.151216,"position":{"type":"Point","coordinates":[-71.151216,42.392628]}},{"name":"Aileron Therapeutics","category":"biotech","city":"","money_raised":"$99.5M","founded_year":2005,"lat":42.101977,"long":-72.637994,"position":{"type":"Point","coordinates":[-72.637994,42.101977]}},{"name":"Aileron Therapeutics","category":"biotech","city":"Cambridge","money_raised":"$99.5M","founded_year":2005,"lat":42.3736158,"long":-71.1097335,"position":{"type":"Point","coordinates":[-71.1097335,42.3736158]}},{"name":"ExpanDrive","category":"software","city":"Cambridge","money_raised":"$0","founded_year":2004,"lat":42.375392,"long":-71.118487,"position":{"type":"Point","coordinates":[-71.118487,42.375392]}},{"name":"IdeaPaint","category":"ecommerce","city":"Cambridge","money_raised":"$13.3M","founded_year":2008,"lat":42.3694815,"long":-71.0771871,"position":{"type":"Point","coordinates":[-71.0771871,42.3694815]}},{"name":"Tokai Pharmaceuticals","category":"biotech","city":"Cambridge","money_raised":"$100M","founded_year":2004,"lat":42.362856,"long":-71.083762,"position":{"type":"Point","coordinates":[-71.083762,42.362856]}},{"name":"Elixir Pharmaceuticals","category":"biotech","city":"Cambridge","money_raised":"$58M","founded_year":1999,"lat":42.362035,"long":-71.113289,"position":{"type":"Point","coordinates":[-71.113289,42.362035]}},{"name":"FORMA Therapeutics","category":"biotech","city":"Cambridge","money_raised":"$42.5M","founded_year":2008,"lat":42.3595196,"long":-71.1156913,"position":{"type":"Point","coordinates":[-71.1156913,42.3595196]}},{"name":"Taligen Therapeutics","category":"biotech","city":"Cambridge","money_raised":"$78.8M","founded_year":2004,"lat":42.3634664,"long":-71.0786638,"position":{"type":"Point","coordinates":[-71.0786638,42.3634664]}},{"name":"Living Proof","category":"biotech","city":"Cambridge","money_raised":"$53M","founded_year":2004,"lat":42.3661884,"long":-71.0802975,"position":{"type":"Point","coordinates":[-71.0802975,42.3661884]}},{"name":"CambridgeSoft","category":"network_hosting","city":"Cambridge","money_raised":"$54.3M","founded_year":1986,"lat":42.3949086,"long":-71.1462914,"position":{"type":"Point","coordinates":[-71.1462914,42.3949086]}},{"name":"Alnara Pharmaceuticals","category":"biotech","city":"Cambridge","money_raised":"$55M","founded_year":2008,"lat":42.3624253,"long":-71.116031,"position":{"type":"Point","coordinates":[-71.116031,42.3624253]}},{"name":"Waban Software","category":"software","city":"Cambridge","money_raised":"$0","founded_year":2002,"lat":42.3885114,"long":-71.1325363,"position":{"type":"Point","coordinates":[-71.1325363,42.3885114]}},{"name":"flexjex","category":"public_relations","city":"Cambridge","money_raised":"$0","founded_year":2008,"lat":52.2025441,"long":0.1312368,"position":{"type":"Point","coordinates":[0.1312368,52.2025441]}},{"name":"Tiverias Apps","category":"software","city":"Cambridge","money_raised":"$0","founded_year":2009,"lat":42.3672873,"long":-71.0814466,"position":{"type":"Point","coordinates":[-71.0814466,42.3672873]}}]