[{"name":"Lala","money_raised":"$44.2M","founded_year":null,"lat":37.451151,"long":-122.154369,"position":{"type":"Point","coordinates":[-122.154369,37.451151]}},{"name":"Joost","money_raised":"$45M","founded_year":2006.0,"lat":40.7464969,"long":-74.0094471,"position":{"type":"Point","coordinates":[-74.0094471,40.7464969]}},{"name":"Babelgum","money_raised":"$13.2M","founded_year":2007.0,"lat":53.344104,"long":-6.267494,"position":{"type":"Point","coordinates":[-6.267494,53.344104]}},{"name":"Kyte","money_raised":"$23.4M","founded_year":2006.0,"lat":37.788482,"long":-122.409173,"position":{"type":"Point","coordinates":[-122.409173,37.788482]}},{"name":"Veoh","money_raised":"$69.8M","founded_year":2004.0,"lat":32.902266,"long":-117.20834,"position":{"type":"Point","coordinates":[-117.20834,32.902266]}},{"name":"blogTV","money_raised":"$3M","founded_year":2006.0,"lat":31.046051,"long":34.851612,"position":{"type":"Point","coordinates":[34.851612,31.046051]}},{"name":"AdaptiveBlue","money_raised":"$24M","founded_year":2007.0,"lat":40.801358,"long":-74.3372,"position":{"type":"Point","coordinates":[-74.3372,40.801358]}},{"name":"Livestream","money_raised":"$14.7M","founded_year":2007.0,"lat":40.726155,"long":-73.995625,"position":{"type":"Point","coordinates":[-73.995625,40.726155]}},{"name":"Pando Networks","money_raised":"$11M","founded_year":2004.0,"lat":40.722655,"long":-73.99873,"position":{"type":"Point","coordinates":[-73.99873,40.722655]}},{"name":"YouTube","money_raised":"$11.5M","founded_year":2005.0,"lat":37.627971,"long":-122.426804,"position":{"type":"Point","coordinates":[-122.426804,37.627971]}},{"name":"CastTV","money_raised":"$3.1M","founded_year":2006.0,"lat":37.780716,"long":-122.393913,"position":{"type":"Point","coordinates":[-122.393913,37.780716]}},{"name":"SellABand","money_raised":"$5M","founded_year":2006.0,"lat":51.808933,"long":6.553452,"position":{"type":"Point","coordinates":[6.553452,51.808933]}},{"name":"Funny Or Die","money_raised":"$18M","founded_year":2007.0,"lat":37.421621,"long":-122.137444,"position":{"type":"Point","coordinates":[-122.137444,37.421621]}},{"name":"MeeVee","money_raised":"$25M","founded_year":2000.0,"lat":37.590339,"long":-122.341715,"position":{"type":"Point","coordinates":[-122.341715,37.590339]}},{"name":"Revision3","money_raised":"$9M","founded_year":2005.0,"lat":37.757758,"long":-122.388243,"position":{"type":"Point","coordinates":[-122.388243,37.757758]}},{"name":"RockYou","money_raised":"$136M","founded_year":2005.0,"lat":37.484619,"long":-122.206893,"position":{"type":"Point","coordinates":[-122.206893,37.484619]}},{"name":"iLike","money_raised":"$16.5M","founded_year":2002.0,"lat":47.615313,"long":-122.323408,"position":{"type":"Point","coordinates":[-122.323408,47.615313]}},{"name":"hi5","money_raised":"$52M","founded_year":2003.0,"lat":37.788668,"long":-122.400558,"position":{"type":"Point","coordinates":[-122.400558,37.788668]}},{"name":"PeerMe","money_raised":"$5M","founded_year":2004.0,"lat":37.419819,"long":-122.090188,"position":{"type":"Point","coordinates":[-122.090188,37.419819]}},{"name":"Vuze","money_raised":"$34M","founded_year":2005.0,"lat":37.4858654,"long":-122.2262606,"position":{"type":"Point","coordinates":[-122.2262606,37.4858654]}},{"name":"PodTech","money_raised":"$7.5M","founded_year":2005.0,"lat":37.408256,"long":-122.154176,"position":{"type":"Point","coordinates":[-122.154176,37.408256]}},{"name":"Crackle","money_raised":"$1.75M","founded_year":2004.0,"lat":34.017506,"long":-118.401579,"position":{"type":"Point","coordinates":[-118.401579,34.017506]}},{"name":"BuddyTV","money_raised":"$10.6M","founded_year":2005.0,"lat":47.61968,"long":-122.356756,"position":{"type":"Point","coordinates":[-122.356756,47.61968]}},{"name":"PermissionTV","money_raised":"$9M","founded_year":2005.0,"lat":42.417268,"long":-71.258466,"position":{"type":"Point","coordinates":[-71.258466,42.417268]}},{"name":"KnockaTV","money_raised":"$4.5M","founded_year":2007.0,"lat":31.046051,"long":34.851612,"position":{"type":"Point","coordinates":[34.851612,31.046051]}},{"name":"Aniboom","money_raised":"$14.5M","founded_year":2006.0,"lat":31.046051,"long":34.851612,"position":{"type":"Point","coordinates":[34.851612,31.046051]}},{"name":"Revver","money_raised":"$12.7M","founded_year":2004.0,"lat":34.052187,"long":-118.243425,"position":{"type":"Point","coordinates":[-118.243425,34.052187]}},{"name":"Metacafe","money_raised":"$50M","founded_year":2003.0,"lat":37.437328,"long":-122.159928,"position":{"type":"Point","coordinates":[-122.159928,37.437328]}},{"name":"Kongregate","money_raised":"$19M","founded_year":2006.0,"lat":37.786942,"long":-122.401245,"position":{"type":"Point","coordinates":[-122.401245,37.786942]}},{"name":"DanceJam","money_raised":"$4.5M","founded_year":2007.0,"lat":37.781557,"long":-122.407959,"position":{"type":"Point","coordinates":[-122.407959,37.781557]}},{"name":"GoFish","money_raised":"$24M","founded_year":2003.0,"lat":37.09024,"long":-95.712891,"position":{"type":"Point","coordinates":[-95.712891,37.09024]}},{"name":"Zango","money_raised":"$40M","founded_year":1999.0,"lat":47.579208,"long":-122.155668,"position":{"type":"Point","coordinates":[-122.155668,47.579208]}},{"name":"Mevio","money_raised":"$48.9M","founded_year":2004.0,"lat":37.782263,"long":-122.392142,"position":{"type":"Point","coordinates":[-122.392142,37.782263]}},{"name":"Ruckus","money_raised":"$52.2M","founded_year":null,"lat":37.09024,"long":-95.712891,"position":{"type":"Point","coordinates":[-95.712891,37.09024]}},{"name":"sezmi","money_raised":"$78.6M","founded_year":2007.0,"lat":37.524422,"long":-122.265869,"position":{"type":"Point","coordinates":[-122.265869,37.524422]}},{"name":"SpiralFrog","money_raised":"$45M","founded_year":2004.0,"lat":37.09024,"long":-95.712891,"position":{"type":"Point","coordinates":[-95.712891,37.09024]}},{"name":"Vtap","money_raised":"$14M","founded_year":null,"lat":42.656621,"long":-71.140538,"position":{"type":"Point","coordinates":[-71.140538,42.656621]}},{"name":"MocoSpace","money_raised":"$10.5M","founded_year":2005.0,"lat":42.350274,"long":-71.058768,"position":{"type":"Point","coordinates":[-71.058768,42.350274]}},{"name":"Xfire","money_raised":"$7M","founded_year":2002.0,"lat":34.0184659,"long":-118.49863,"position":{"type":"Point","coordinates":[-118.49863,34.0184659]}},{"name":"Crunchyroll","money_raised":"$4.8M","founded_year":2008.0,"lat":37.781265,"long":-122.393229,"position":{"type":"Point","coordinates":[-122.393229,37.781265]}},{"name":"hulu","money_raised":"$100M","founded_year":2007.0,"lat":34.031276,"long":-118.456806,"position":{"type":"Point","coordinates":[-118.456806,34.031276]}},{"name":"FlowPlay","money_raised":"$3.97M","founded_year":2006.0,"lat":47.6015315,"long":-122.335943,"position":{"type":"Point","coordinates":[-122.335943,47.6015315]}},{"name":"RotoHog","money_raised":"$8M","founded_year":null,"lat":33.959799,"long":-118.343938,"position":{"type":"Point","coordinates":[-118.343938,33.959799]}},{"name":"ChessPark","money_raised":"$1M","founded_year":2007.0,"lat":43.67084,"long":-83.913153,"position":{"type":"Point","coordinates":[-83.913153,43.67084]}},{"name":"mig33","money_raised":"$32.4M","founded_year":2005.0,"lat":37.580304,"long":-122.343679,"position":{"type":"Point","coordinates":[-122.343679,37.580304]}},{"name":"Metaplace","money_raised":"$9.4M","founded_year":2006.0,"lat":33.020832,"long":-117.077311,"position":{"type":"Point","coordinates":[-117.077311,33.020832]}},{"name":"Graspr","money_raised":"$2.5M","founded_year":null,"lat":37.384919,"long":-122.053175,"position":{"type":"Point","coordinates":[-122.053175,37.384919]}},{"name":"Rupture","money_raised":"$3M","founded_year":null,"lat":37.783898,"long":-122.395234,"position":{"type":"Point","coordinates":[-122.395234,37.783898]}},{"name":"RayV","money_raised":"$16M","founded_year":2005.0,"lat":40.781159,"long":-73.978332,"position":{"type":"Point","coordinates":[-73.978332,40.781159]}},{"name":"Veodia","money_raised":"$8.3M","founded_year":2006.0,"lat":37.553743,"long":-122.300246,"position":{"type":"Point","coordinates":[-122.300246,37.553743]}},{"name":"CollegeHumor","money_raised":"$20M","founded_year":1999.0,"lat":37.09024,"long":-95.712891,"position":{"type":"Point","coordinates":[-95.712891,37.09024]}},{"name":"OnLive","money_raised":"$56.5M","founded_year":2002.0,"lat":37.09024,"long":-95.712891,"position":{"type":"Point","coordinates":[-95.712891,37.09024]}},{"name":"PicksPal","money_raised":"$15M","founded_year":null,"lat":37.40047,"long":-122.072981,"position":{"type":"Point","coordinates":[-122.072981,37.40047]}},{"name":"Akimbo","money_raised":"$35.7M","founded_year":null,"lat":37.548482,"long":-122.320534,"position":{"type":"Point","coordinates":[-122.320534,37.548482]}},{"name":"Fix8","money_raised":"$5M","founded_year":null,"lat":34.152826,"long":-118.465582,"position":{"type":"Point","coordinates":[-118.465582,34.152826]}},{"name":"ZeniMax","money_raised":"$586M","founded_year":1999.0,"lat":39.105555,"long":-77.179772,"position":{"type":"Point","coordinates":[-77.179772,39.105555]}},{"name":"Blowtorch","money_raised":"$50M","founded_year":null,"lat":37.862592,"long":-122.493561,"position":{"type":"Point","coordinates":[-122.493561,37.862592]}},{"name":"RedLasso","money_raised":"C$8.5M","founded_year":null,"lat":40.099703,"long":-75.39599,"position":{"type":"Point","coordinates":[-75.39599,40.099703]}},{"name":"Motionbox","money_raised":"$17.2M","founded_year":2006.0,"lat":40.606061,"long":-73.822331,"position":{"type":"Point","coordinates":[-73.822331,40.606061]}},{"name":"Kewego","money_raised":"$19.4M","founded_year":2003.0,"lat":46.227638,"long":2.213749,"position":{"type":"Point","coordinates":[2.213749,46.227638]}},{"name":"WildTangent","money_raised":"$84M","founded_year":1998.0,"lat":37.09024,"long":-95.712891,"position":{"type":"Point","coordinates":[-95.712891,37.09024]}},{"name":"WeShow","money_raised":"$5M","founded_year":2007.0,"lat":40.752516,"long":-73.973072,"position":{"type":"Point","coordinates":[-73.973072,40.752516]}},{"name":"Delve Networks","money_raised":"$9.65M","founded_year":2006.0,"lat":47.600818,"long":-122.334117,"position":{"type":"Point","coordinates":[-122.334117,47.600818]}},{"name":"DeepRockDrive","money_raised":"$3M","founded_year":null,"lat":36.1062,"long":-115.1374,"position":{"type":"Point","coordinates":[-115.1374,36.1062]}},{"name":"Outspark","money_raised":"$23.3M","founded_year":2007.0,"lat":37.775196,"long":-122.419204,"position":{"type":"Point","coordinates":[-122.419204,37.775196]}},{"name":"iVideosongs","money_raised":"$3.3M","founded_year":null,"lat":37.09024,"long":-95.712891,"position":{"type":"Point","coordinates":[-95.712891,37.09024]}},{"name":"WorldTV","money_raised":"$1M","founded_year":2006.0,"lat":52.6638571,"long":-8.6267726,"position":{"type":"Point","coordinates":[-8.6267726,52.6638571]}},{"name":"Maven Networks","money_raised":"$12M","founded_year":null,"lat":42.375392,"long":-71.118487,"position":{"type":"Point","coordinates":[-71.118487,42.375392]}},{"name":"Netflix","money_raised":"$230M","founded_year":1997.0,"lat":37.25142,"long":-121.968687,"position":{"type":"Point","coordinates":[-121.968687,37.25142]}},{"name":"Social Gaming Network","money_raised":"$17.1M","founded_year":2011.0,"lat":37.446823,"long":-122.161523,"position":{"type":"Point","coordinates":[-122.161523,37.446823]}},{"name":"RiffTrax","money_raised":"$5M","founded_year":2006.0,"lat":32.936973,"long":-117.240431,"position":{"type":"Point","coordinates":[-117.240431,32.936973]}},{"name":"FameCast","money_raised":"$9.7M","founded_year":2007.0,"lat":30.268735,"long":-97.745209,"position":{"type":"Point","coordinates":[-97.745209,30.268735]}},{"name":"Redux","money_raised":"$8.11M","founded_year":2007.0,"lat":37.87168,"long":-122.269494,"position":{"type":"Point","coordinates":[-122.269494,37.87168]}},{"name":"Raptr","money_raised":"$27M","founded_year":2007.0,"lat":37.40384,"long":-122.07808,"position":{"type":"Point","coordinates":[-122.07808,37.40384]}},{"name":"iOpener","money_raised":"\u20ac10.1M","founded_year":null,"lat":50.791481,"long":6.066681,"position":{"type":"Point","coordinates":[6.066681,50.791481]}},{"name":"Boonty","money_raised":"$10M","founded_year":2001.0,"lat":40.717248,"long":-74.002662,"position":{"type":"Point","coordinates":[-74.002662,40.717248]}},{"name":"Generate","money_raised":"$8M","founded_year":2004.0,"lat":34.031328,"long":-118.471463,"position":{"type":"Point","coordinates":[-118.471463,34.031328]}},{"name":"Akoha","money_raised":"$1.9M","founded_year":2006.0,"lat":45.516545,"long":-73.578477,"position":{"type":"Point","coordinates":[-73.578477,45.516545]}},{"name":"FriendFinder Networks","money_raised":"$551M","founded_year":null,"lat":26.4074809,"long":-80.1169895,"position":{"type":"Point","coordinates":[-80.1169895,26.4074809]}},{"name":"Playfish","money_raised":"$21M","founded_year":2007.0,"lat":51.4991094,"long":-0.1984802,"position":{"type":"Point","coordinates":[-0.1984802,51.4991094]}},{"name":"Slicethepie","money_raised":"$4.8M","founded_year":2007.0,"lat":55.378051,"long":-3.435973,"position":{"type":"Point","coordinates":[-3.435973,55.378051]}},{"name":"Mytopia","money_raised":"$3.5M","founded_year":2007.0,"lat":34.007967,"long":-118.489681,"position":{"type":"Point","coordinates":[-118.489681,34.007967]}},{"name":"Pikum","money_raised":"$5.92M","founded_year":2007.0,"lat":51.539778,"long":-0.152998,"position":{"type":"Point","coordinates":[-0.152998,51.539778]}},{"name":"ibeatyou","money_raised":"$1M","founded_year":null,"lat":34.0195,"long":-118.4906,"position":{"type":"Point","coordinates":[-118.4906,34.0195]}},{"name":"Realtime Worlds","money_raised":"$82.8M","founded_year":2002.0,"lat":56.461428,"long":-2.968111,"position":{"type":"Point","coordinates":[-2.968111,56.461428]}},{"name":"AudioMicro","money_raised":"$1.25M","founded_year":2008.0,"lat":34.153588,"long":-118.422495,"position":{"type":"Point","coordinates":[-118.422495,34.153588]}},{"name":"Cellufun","money_raised":"$5.23M","founded_year":2005.0,"lat":40.73993,"long":-73.9930489,"position":{"type":"Point","coordinates":[-73.9930489,40.73993]}},{"name":"Vivity Labs","money_raised":"$1M","founded_year":2007.0,"lat":49.282249,"long":-123.108456,"position":{"type":"Point","coordinates":[-123.108456,49.282249]}},{"name":"Comcast","money_raised":"$725M","founded_year":1963.0,"lat":39.9525762,"long":-75.1652518,"position":{"type":"Point","coordinates":[-75.1652518,39.9525762]}},{"name":"PluggedIn","money_raised":"$2M","founded_year":2006.0,"lat":34.007967,"long":-118.489681,"position":{"type":"Point","coordinates":[-118.489681,34.007967]}},{"name":"Modern Feed","money_raised":"$3M","founded_year":2007.0,"lat":34.085749,"long":-118.343791,"position":{"type":"Point","coordinates":[-118.343791,34.085749]}},{"name":"Serious Business","money_raised":"$4M","founded_year":2008.0,"lat":37.7893215,"long":-122.4013624,"position":{"type":"Point","coordinates":[-122.4013624,37.7893215]}},{"name":"Turbine","money_raised":"$76.6M","founded_year":null,"lat":42.214483,"long":-71.185964,"position":{"type":"Point","coordinates":[-71.185964,42.214483]}},{"name":"GodTube","money_raised":"$32.5M","founded_year":2007.0,"lat":33.075067,"long":-96.823962,"position":{"type":"Point","coordinates":[-96.823962,33.075067]}},{"name":"Citizen Sports","money_raised":"$10M","founded_year":null,"lat":37.777513,"long":-122.397044,"position":{"type":"Point","coordinates":[-122.397044,37.777513]}},{"name":"Jinni","money_raised":"$8.1M","founded_year":2008.0,"lat":32.0554,"long":34.7595,"position":{"type":"Point","coordinates":[34.7595,32.0554]}},{"name":"OVGuide","money_raised":"$7.98M","founded_year":2006.0,"lat":34.052187,"long":-118.243425,"position":{"type":"Point","coordinates":[-118.243425,34.052187]}},{"name":"sevenload","money_raised":"\u20ac25M","founded_year":2006.0,"lat":50.945289,"long":6.921546,"position":{"type":"Point","coordinates":[6.921546,50.945289]}},{"name":"amazingtunes","money_raised":"\u00a31.4M","founded_year":2006.0,"lat":54.971346,"long":-1.611141,"position":{"type":"Point","coordinates":[-1.611141,54.971346]}},{"name":"Sometrics","money_raised":"$5.55M","founded_year":2007.0,"lat":34.048857,"long":-118.251343,"position":{"type":"Point","coordinates":[-118.251343,34.048857]}},{"name":"GameFly","money_raised":"$10.7M","founded_year":2002.0,"lat":33.934558,"long":-118.3962622,"position":{"type":"Point","coordinates":[-118.3962622,33.934558]}},{"name":"Fliqz","money_raised":"$12.2M","founded_year":2005.0,"lat":37.848641,"long":-122.289498,"position":{"type":"Point","coordinates":[-122.289498,37.848641]}},{"name":"Moblyng","money_raised":"$19.1M","founded_year":2005.0,"lat":37.453665,"long":-122.229069,"position":{"type":"Point","coordinates":[-122.229069,37.453665]}},{"name":"PurePlay","money_raised":"$15M","founded_year":2004.0,"lat":37.775196,"long":-122.419204,"position":{"type":"Point","coordinates":[-122.419204,37.775196]}},{"name":"eJamming","money_raised":"$1.84M","founded_year":null,"lat":26.367481,"long":-80.114723,"position":{"type":"Point","coordinates":[-80.114723,26.367481]}},{"name":"TuneCore","money_raised":"$7M","founded_year":2005.0,"lat":40.704382,"long":-73.986572,"position":{"type":"Point","coordinates":[-73.986572,40.704382]}},{"name":"Gamook","money_raised":"$1.5M","founded_year":2008.0,"lat":37.41924,"long":-122.208414,"position":{"type":"Point","coordinates":[-122.208414,37.41924]}},{"name":"Dizzywood","money_raised":"$2M","founded_year":2007.0,"lat":37.269175,"long":-119.306607,"position":{"type":"Point","coordinates":[-119.306607,37.269175]}},{"name":"Knowledge Adventure","money_raised":"$26.8M","founded_year":1989.0,"lat":33.8231,"long":-118.328584,"position":{"type":"Point","coordinates":[-118.328584,33.8231]}},{"name":"Titan Gaming","money_raised":"$1M","founded_year":2010.0,"lat":53.544711,"long":-113.515769,"position":{"type":"Point","coordinates":[-113.515769,53.544711]}},{"name":"VBS TV","money_raised":"$10M","founded_year":2006.0,"lat":40.720764,"long":-73.957968,"position":{"type":"Point","coordinates":[-73.957968,40.720764]}},{"name":"My Damn Channel","money_raised":"$8.66M","founded_year":2007.0,"lat":40.754762,"long":-73.988543,"position":{"type":"Point","coordinates":[-73.988543,40.754762]}},{"name":"Fluid Entertainment","money_raised":"$3.2M","founded_year":1998.0,"lat":37.906966,"long":-122.545763,"position":{"type":"Point","coordinates":[-122.545763,37.906966]}},{"name":"Numedeon","money_raised":"$1M","founded_year":null,"lat":33.9133208,"long":-117.8789031,"position":{"type":"Point","coordinates":[-117.8789031,33.9133208]}},{"name":"Riot Games","money_raised":"$8M","founded_year":2006.0,"lat":34.0025911,"long":-118.3942383,"position":{"type":"Point","coordinates":[-118.3942383,34.0025911]}},{"name":"GenArts","money_raised":"$22.4M","founded_year":1996.0,"lat":42.369007,"long":-71.110276,"position":{"type":"Point","coordinates":[-71.110276,42.369007]}},{"name":"Lexy","money_raised":"$1.71M","founded_year":2006.0,"lat":37.786906,"long":-122.397672,"position":{"type":"Point","coordinates":[-122.397672,37.786906]}},{"name":"Anvato","money_raised":"$2.55M","founded_year":2007.0,"lat":37.400689,"long":-122.0572,"position":{"type":"Point","coordinates":[-122.0572,37.400689]}},{"name":"Network Foundation Technologies","money_raised":"$1.44M","founded_year":null,"lat":34.057646,"long":-118.417382,"position":{"type":"Point","coordinates":[-118.417382,34.057646]}},{"name":"ngmoco","money_raised":"$44.8M","founded_year":2008.0,"lat":37.7705096,"long":-122.4015807,"position":{"type":"Point","coordinates":[-122.4015807,37.7705096]}},{"name":"Shattered Reality Interactive","money_raised":"$1.1M","founded_year":2006.0,"lat":37.783046,"long":-122.394067,"position":{"type":"Point","coordinates":[-122.394067,37.783046]}},{"name":"Hangout Industries","money_raised":"$12M","founded_year":2005.0,"lat":42.352835,"long":-71.0609612,"position":{"type":"Point","coordinates":[-71.0609612,42.352835]}},{"name":"Shattered Reality Interactive","money_raised":"$1.1M","founded_year":2006.0,"lat":37.783046,"long":-122.394067,"position":{"type":"Point","coordinates":[-122.394067,37.783046]}},{"name":"Hangout Industries","money_raised":"$12M","founded_year":2005.0,"lat":42.352835,"long":-71.0609612,"position":{"type":"Point","coordinates":[-71.0609612,42.352835]}},{"name":"Brightstorm","money_raised":"$6M","founded_year":2008.0,"lat":37.804619,"long":-122.371203,"position":{"type":"Point","coordinates":[-122.371203,37.804619]}},{"name":"Heatwave Interactive","money_raised":"$12.6M","founded_year":2008.0,"lat":30.297775,"long":-97.762921,"position":{"type":"Point","coordinates":[-97.762921,30.297775]}},{"name":"Radio One Llama","money_raised":"$1M","founded_year":2006.0,"lat":40.1128,"long":-88.271074,"position":{"type":"Point","coordinates":[-88.271074,40.1128]}},{"name":"One Season","money_raised":"$3.75M","founded_year":2007.0,"lat":37.775196,"long":-122.419204,"position":{"type":"Point","coordinates":[-122.419204,37.775196]}},{"name":"Apaja","money_raised":"\u20ac1.75M","founded_year":2001.0,"lat":60.171821,"long":24.945167,"position":{"type":"Point","coordinates":[24.945167,60.171821]}},{"name":"Booyah","money_raised":"$59.5M","founded_year":2008.0,"lat":37.420728,"long":-122.2103414,"position":{"type":"Point","coordinates":[-122.2103414,37.420728]}},{"name":"GotGame","money_raised":"$1M","founded_year":2006.0,"lat":37.77772,"long":-122.395785,"position":{"type":"Point","coordinates":[-122.395785,37.77772]}},{"name":"For Your Imagination","money_raised":"$1.3M","founded_year":2007.0,"lat":40.744594,"long":-73.989698,"position":{"type":"Point","coordinates":[-73.989698,40.744594]}},{"name":"SureSpeak","money_raised":"$1.6M","founded_year":2007.0,"lat":41.889183,"long":-87.632519,"position":{"type":"Point","coordinates":[-87.632519,41.889183]}},{"name":"Games2Win","money_raised":"$13M","founded_year":2005.0,"lat":18.9742904,"long":72.8127265,"position":{"type":"Point","coordinates":[72.8127265,18.9742904]}},{"name":"Awdio","money_raised":"\u20ac1.5M","founded_year":2007.0,"lat":48.887534,"long":2.356288,"position":{"type":"Point","coordinates":[2.356288,48.887534]}},{"name":"Citizenside","money_raised":"\u20ac1.04M","founded_year":2006.0,"lat":48.8926988,"long":2.3179601,"position":{"type":"Point","coordinates":[2.3179601,48.8926988]}},{"name":"Verismo Networks","money_raised":"$17M","founded_year":2003.0,"lat":37.3874345,"long":-122.051793,"position":{"type":"Point","coordinates":[-122.051793,37.3874345]}},{"name":"One True Media","money_raised":"$14M","founded_year":2005.0,"lat":37.485824,"long":-122.212095,"position":{"type":"Point","coordinates":[-122.212095,37.485824]}},{"name":"Machinima","money_raised":"$49.6M","founded_year":2000.0,"lat":34.0906409,"long":-118.3740745,"position":{"type":"Point","coordinates":[-118.3740745,34.0906409]}},{"name":"MyOtherDrive","money_raised":"$1M","founded_year":2005.0,"lat":39.7605421,"long":-84.1949463,"position":{"type":"Point","coordinates":[-84.1949463,39.7605421]}},{"name":"RGB Networks","money_raised":"$52M","founded_year":2003.0,"lat":37.4123706,"long":-122.0216271,"position":{"type":"Point","coordinates":[-122.0216271,37.4123706]}},{"name":"GlassBox","money_raised":"$6.21M","founded_year":null,"lat":43.5351549,"long":-79.6735074,"position":{"type":"Point","coordinates":[-79.6735074,43.5351549]}},{"name":"Robotgalaxy","money_raised":"$12M","founded_year":2006.0,"lat":40.737216,"long":-73.990947,"position":{"type":"Point","coordinates":[-73.990947,40.737216]}},{"name":"Wazoo Sports","money_raised":"$2M","founded_year":null,"lat":37.1286,"long":-84.0834,"position":{"type":"Point","coordinates":[-84.0834,37.1286]}},{"name":"Heyzap","money_raised":"$7.97M","founded_year":2009.0,"lat":37.7905538,"long":-122.4041485,"position":{"type":"Point","coordinates":[-122.4041485,37.7905538]}},{"name":"C3L3B Digital","money_raised":"$3M","founded_year":null,"lat":34.1549426,"long":-118.6545471,"position":{"type":"Point","coordinates":[-118.6545471,34.1549426]}},{"name":"NetStreams","money_raised":"$18.2M","founded_year":null,"lat":30.424305,"long":-97.709981,"position":{"type":"Point","coordinates":[-97.709981,30.424305]}},{"name":"Comixology","money_raised":"$3.47M","founded_year":2007.0,"lat":40.740512,"long":-73.987794,"position":{"type":"Point","coordinates":[-73.987794,40.740512]}},{"name":"Gamervision","money_raised":"$10M","founded_year":null,"lat":40.3321202,"long":-75.1184485,"position":{"type":"Point","coordinates":[-75.1184485,40.3321202]}},{"name":"RealD","money_raised":"$72M","founded_year":1980.0,"lat":34.067554,"long":-118.395658,"position":{"type":"Point","coordinates":[-118.395658,34.067554]}},{"name":"Selatra","money_raised":"\u20ac4M","founded_year":2002.0,"lat":51.8717115,"long":-8.5010032,"position":{"type":"Point","coordinates":[-8.5010032,51.8717115]}},{"name":"whistleBox","money_raised":"$2.3M","founded_year":null,"lat":40.7197125,"long":-73.9607545,"position":{"type":"Point","coordinates":[-73.9607545,40.7197125]}},{"name":"BASH Gaming","money_raised":"$1M","founded_year":2010.0,"lat":37.5561712,"long":-122.0780632,"position":{"type":"Point","coordinates":[-122.0780632,37.5561712]}},{"name":"Major League Gaming","money_raised":"$69M","founded_year":2002.0,"lat":40.752672,"long":-73.97593,"position":{"type":"Point","coordinates":[-73.97593,40.752672]}},{"name":"M3X Media","money_raised":"$10.5M","founded_year":2005.0,"lat":26.72868,"long":-80.099946,"position":{"type":"Point","coordinates":[-80.099946,26.72868]}},{"name":"Crispy Gamer","money_raised":"$8.25M","founded_year":2008.0,"lat":40.750597,"long":-73.985273,"position":{"type":"Point","coordinates":[-73.985273,40.750597]}},{"name":"AnySource Media","money_raised":"$3.2M","founded_year":2006.0,"lat":40.054547,"long":-75.515376,"position":{"type":"Point","coordinates":[-75.515376,40.054547]}},{"name":"SCVNGR","money_raised":"$40.8M","founded_year":2008.0,"lat":42.3406534,"long":-71.0680027,"position":{"type":"Point","coordinates":[-71.0680027,42.3406534]}},{"name":"Owlient","money_raised":"\u20ac3M","founded_year":2005.0,"lat":48.8308091,"long":2.3032201,"position":{"type":"Point","coordinates":[2.3032201,48.8308091]}},{"name":"ZillionTV","money_raised":"$18.1M","founded_year":null,"lat":37.3738725,"long":-121.9973546,"position":{"type":"Point","coordinates":[-121.9973546,37.3738725]}},{"name":"Z2Live","money_raised":"$6.5M","founded_year":2009.0,"lat":47.6103008,"long":-122.3399782,"position":{"type":"Point","coordinates":[-122.3399782,47.6103008]}},{"name":"Tribal Nova","money_raised":"C$3M","founded_year":null,"lat":45.5194549,"long":-73.5849023,"position":{"type":"Point","coordinates":[-73.5849023,45.5194549]}},{"name":"Serious Parody","money_raised":"\u00a31M","founded_year":null,"lat":56.462018,"long":-2.970721,"position":{"type":"Point","coordinates":[-2.970721,56.462018]}},{"name":"Busca Corp","money_raised":"$5M","founded_year":2007.0,"lat":32.841791,"long":-117.274602,"position":{"type":"Point","coordinates":[-117.274602,32.841791]}},{"name":"Lightning Gaming","money_raised":"$4M","founded_year":2004.0,"lat":39.8728373,"long":-75.4784988,"position":{"type":"Point","coordinates":[-75.4784988,39.8728373]}},{"name":"Virgin Play","money_raised":"$3.86M","founded_year":1995.0,"lat":40.4273082,"long":-3.6895115,"position":{"type":"Point","coordinates":[-3.6895115,40.4273082]}},{"name":"Saavn","money_raised":"$6M","founded_year":2006.0,"lat":40.743877,"long":-73.98618,"position":{"type":"Point","coordinates":[-73.98618,40.743877]}},{"name":"2 Minutes","money_raised":"$1.66M","founded_year":2000.0,"lat":48.8502056,"long":2.3698033,"position":{"type":"Point","coordinates":[2.3698033,48.8502056]}},{"name":"GameGround","money_raised":"$11.4M","founded_year":2007.0,"lat":40.756054,"long":-73.986951,"position":{"type":"Point","coordinates":[-73.986951,40.756054]}},{"name":"Forterra Systems","money_raised":"$1.2M","founded_year":2005.0,"lat":37.561576,"long":-122.284173,"position":{"type":"Point","coordinates":[-122.284173,37.561576]}},{"name":"PopCap Games","money_raised":"$22.5M","founded_year":2000.0,"lat":47.6161693,"long":-122.3451897,"position":{"type":"Point","coordinates":[-122.3451897,47.6161693]}},{"name":"Tiny Speck","money_raised":"$17.2M","founded_year":2009.0,"lat":49.2824551,"long":-123.109217,"position":{"type":"Point","coordinates":[-123.109217,49.2824551]}}]