[{"name":"Styky","category":"mobile","city":"Philadelphia","money_raised":"$100k","founded_year":2003,"lat":39.956259,"long":-75.194657,"position":{"type":"Point","coordinates":[-75.194657,39.956259]}},{"name":"myfirstpaycheck","category":"web","city":"Philadelphia","money_raised":"$0","founded_year":2007,"lat":39.952229,"long":-75.162644,"position":{"type":"Point","coordinates":[-75.162644,39.952229]}},{"name":"Vuzit","category":"software","city":"Philadelphia","money_raised":"$355k","founded_year":2006,"lat":39.9564403,"long":-75.1961715,"position":{"type":"Point","coordinates":[-75.1961715,39.9564403]}},{"name":"Popularo","category":"web","city":"Philadelphia","money_raised":"$0","founded_year":2007,"lat":39.951639,"long":-75.163808,"position":{"type":"Point","coordinates":[-75.163808,39.951639]}},{"name":"PayLoadz","category":"web","city":"Philadelphia","money_raised":"$0","founded_year":2004,"lat":40.738832,"long":-73.981534,"position":{"type":"Point","coordinates":[-73.981534,40.738832]}},{"name":"Comcast","category":"games_video","city":"Philadelphia","money_raised":"$725M","founded_year":1963,"lat":39.9525762,"long":-75.1652518,"position":{"type":"Point","coordinates":[-75.1652518,39.9525762]}},{"name":"TicketLeap","category":"ecommerce","city":"Philadelphia","money_raised":"$8.66M","founded_year":2003,"lat":39.9512991,"long":-75.179869,"position":{"type":"Point","coordinates":[-75.179869,39.9512991]}},{"name":"The Ad Database","category":"advertising","city":"Philadelphia","money_raised":"$0","founded_year":2007,"lat":39.964046,"long":-75.197184,"position":{"type":"Point","coordinates":[-75.197184,39.964046]}},{"name":"Sport Interactiva","category":"games_video","city":"Philadelphia","money_raised":"$0","founded_year":2007,"lat":39.951053,"long":-75.197465,"position":{"type":"Point","coordinates":[-75.197465,39.951053]}},{"name":"Anthillz","category":"web","city":"Philadelphia","money_raised":"$0","founded_year":2008,"lat":39.95644,"long":-75.196171,"position":{"type":"Point","coordinates":[-75.196171,39.95644]}},{"name":"The Impartial Observer","category":"web","city":"Philadelphia","money_raised":"$0","founded_year":2008,"lat":39.951639,"long":-75.163808,"position":{"type":"Point","coordinates":[-75.163808,39.951639]}},{"name":"The Impartial Observer","category":"web","city":"Philadelphia","money_raised":"$0","founded_year":2008,"lat":39.951639,"long":-75.163808,"position":{"type":"Point","coordinates":[-75.163808,39.951639]}},{"name":"Givology","category":"other","city":"Philadelphia","money_raised":"$0","founded_year":2008,"lat":39.952332,"long":-75.197624,"position":{"type":"Point","coordinates":[-75.197624,39.952332]}},{"name":"Alpha Channel Media","category":"other","city":"Philadelphia","money_raised":"$0","founded_year":2008,"lat":39.950709,"long":-75.168954,"position":{"type":"Point","coordinates":[-75.168954,39.950709]}},{"name":"MyNetResearch","category":"search","city":"Philadelphia","money_raised":"$0","founded_year":2008,"lat":39.951639,"long":-75.163808,"position":{"type":"Point","coordinates":[-75.163808,39.951639]}},{"name":"MacArthur Associates","category":"other","city":"Philadelphia","money_raised":"$0","founded_year":1989,"lat":39.9528012,"long":-75.1668626,"position":{"type":"Point","coordinates":[-75.1668626,39.9528012]}},{"name":"RJMetrics","category":"software","city":"Philadelphia","money_raised":"$7.45M","founded_year":2008,"lat":39.9443552,"long":-75.1257381,"position":{"type":"Point","coordinates":[-75.1257381,39.9443552]}},{"name":"iugo","category":"software","city":"Philadelphia","money_raised":"$0","founded_year":2008,"lat":40.032121,"long":-75.191867,"position":{"type":"Point","coordinates":[-75.191867,40.032121]}},{"name":"Sports Reference","category":"games_video","city":"Philadelphia","money_raised":"$0","founded_year":2007,"lat":40.0450165,"long":-75.19373,"position":{"type":"Point","coordinates":[-75.19373,40.0450165]}},{"name":"Heavy Bubble","category":"advertising","city":"Philadelphia","money_raised":"$0","founded_year":2008,"lat":39.949433,"long":-75.168399,"position":{"type":"Point","coordinates":[-75.168399,39.949433]}},{"name":"Workbridge Associates","category":"other","city":"Philadelphia","money_raised":"$0","founded_year":1989,"lat":39.9528012,"long":-75.1668626,"position":{"type":"Point","coordinates":[-75.1668626,39.9528012]}},{"name":"ChronoWake","category":"biotech","city":"Philadelphia","money_raised":"$10k","founded_year":2008,"lat":39.9511019,"long":-75.197882,"position":{"type":"Point","coordinates":[-75.197882,39.9511019]}},{"name":"Snipi","category":"ecommerce","city":"Philadelphia","money_raised":"$4.03M","founded_year":2007,"lat":39.9502045,"long":-75.1618758,"position":{"type":"Point","coordinates":[-75.1618758,39.9502045]}},{"name":"Azavea","category":"software","city":"Philadelphia","money_raised":"$0","founded_year":2000,"lat":39.9587169,"long":-75.1583802,"position":{"type":"Point","coordinates":[-75.1583802,39.9587169]}},{"name":"Ennovance Capital","category":"other","city":"Philadelphia","money_raised":"$0","founded_year":2008,"lat":40.2090785,"long":-75.2309109,"position":{"type":"Point","coordinates":[-75.2309109,40.2090785]}},{"name":"Alkali Media","category":"mobile","city":"Philadelphia","money_raised":"$0","founded_year":2008,"lat":39.951639,"long":-75.163808,"position":{"type":"Point","coordinates":[-75.163808,39.951639]}},{"name":"Onthegig","category":"software","city":"Philadelphia","money_raised":"$0","founded_year":2006,"lat":39.9493801,"long":-75.145782,"position":{"type":"Point","coordinates":[-75.145782,39.9493801]}},{"name":"greenstar media labs","category":"consulting","city":"Philadelphia","money_raised":"$0","founded_year":2005,"lat":39.951639,"long":-75.163808,"position":{"type":"Point","coordinates":[-75.163808,39.951639]}},{"name":"ZIPQODE","category":"web","city":"Philadelphia","money_raised":"$0","founded_year":2009,"lat":39.951639,"long":-75.163808,"position":{"type":"Point","coordinates":[-75.163808,39.951639]}},{"name":"HxTechnologies","category":"software","city":"Philadelphia","money_raised":"$0","founded_year":2000,"lat":39.9587169,"long":-75.1583802,"position":{"type":"Point","coordinates":[-75.1583802,39.9587169]}}]